City_ID,City,Country,Date,Lat,Lng,Max Temp,Humidity,Cloudiness,Wind Speed
0,Praia,CV,2021-09-25 02:38:13,14.9215,-23.5087,77.54,83,20,9.22
1,Ushuaia,AR,2021-09-25 02:38:13,-54.8,-68.3,37.06,93,75,3.44
2,Dunedin,NZ,2021-09-25 02:36:34,-45.8742,170.5036,60.58,53,16,16.22
3,Albany,US,2021-09-25 02:35:28,42.6001,-73.9662,56.62,86,1,1.63
4,Punta Arenas,CL,2021-09-25 02:38:13,-53.15,-70.9167,37.51,87,40,11.5
5,Puerto Ayora,EC,2021-09-25 02:38:14,-0.7393,-90.3518,69.55,89,86,5.7
6,Kapaa,US,2021-09-25 02:38:14,22.0752,-159.319,82.38,76,75,3.0
7,Tuktoyaktuk,CA,2021-09-25 02:36:54,69.4541,-133.0374,33.8,100,90,18.41
8,Laguna De Perlas,NI,2021-09-25 02:38:14,12.3429,-83.6712,78.4,88,100,10.29
9,Avarua,CK,2021-09-25 02:35:07,-21.2078,-159.775,77.05,57,98,8.05
10,Yining,CN,2021-09-25 02:38:14,29.0361,114.5636,93.87,48,9,2.24
11,Airai,TL,2021-09-25 02:36:57,-8.9266,125.4092,79.07,36,28,2.86
12,Atuona,PF,2021-09-25 02:38:15,-9.8,-139.0333,77.88,80,100,16.82
13,Busselton,AU,2021-09-25 02:38:15,-33.65,115.3333,61.05,55,3,16.46
14,Nouadhibou,MR,2021-09-25 02:38:15,20.931,-17.0347,70.52,87,16,20.67
15,Nikolskoye,RU,2021-09-25 02:38:16,59.7035,30.7861,46.87,93,100,7.56
16,North Bend,US,2021-09-25 02:38:16,43.4065,-124.2243,62.85,88,1,4.61
17,Port Blair,IN,2021-09-25 02:38:16,11.6667,92.75,82.89,78,93,14.5
18,Bilma,NE,2021-09-25 02:34:01,18.6853,12.9164,84.07,13,8,4.9
19,Jiangyou,CN,2021-09-25 02:38:17,31.7667,104.7167,75.97,87,99,5.3
20,Pevek,RU,2021-09-25 02:38:17,69.7008,170.3133,28.87,76,100,14.03
21,Hilo,US,2021-09-25 02:38:17,19.7297,-155.09,80.28,83,90,5.75
22,Graaff-Reinet,ZA,2021-09-25 02:38:17,-32.2522,24.5308,58.24,50,44,4.99
23,Port Elizabeth,ZA,2021-09-25 02:37:29,-33.918,25.5701,50.29,93,0,1.14
24,Gravdal,NO,2021-09-25 02:38:18,68.1214,13.5031,46.09,82,100,3.91
25,Husavik,IS,2021-09-25 02:38:18,66.0449,-17.3389,35.51,90,100,6.22
26,Qaqortoq,GL,2021-09-25 02:38:18,60.7167,-46.0333,34.3,44,0,5.5
27,Vardo,NO,2021-09-25 02:38:18,70.3705,31.1107,46.11,93,100,12.77
28,Hermanus,ZA,2021-09-25 02:36:30,-34.4187,19.2345,53.91,83,100,4.12
29,Jamestown,US,2021-09-25 02:35:28,42.097,-79.2353,57.72,83,1,1.01
30,Coolum Beach,AU,2021-09-25 02:38:19,-26.5333,153.1,86.34,61,10,13.31
31,Antofagasta,CL,2021-09-25 02:36:03,-23.65,-70.4,58.28,68,1,2.26
32,Victoria,HK,2021-09-25 02:34:21,22.2855,114.1577,93.22,73,52,3.0
33,Karpogory,RU,2021-09-25 02:38:19,64.0019,44.4451,45.88,96,100,7.72
34,Ahuimanu,US,2021-09-25 02:38:20,21.4447,-157.8378,87.51,70,90,10.36
35,Port Lincoln,AU,2021-09-25 02:38:20,-34.7333,135.8667,54.77,58,65,12.12
36,Cayenne,GF,2021-09-25 02:38:20,4.9333,-52.3333,83.08,82,55,1.99
37,Sitka,US,2021-09-25 02:34:51,57.0531,-135.33,49.89,76,75,9.22
38,Bandarbeyla,SO,2021-09-25 02:38:21,9.4942,50.8122,77.63,78,100,21.94
39,Arraial Do Cabo,BR,2021-09-25 02:38:21,-22.9661,-42.0278,69.12,77,98,24.02
40,Hammerfest,NO,2021-09-25 02:38:21,70.6634,23.6821,46.85,71,75,6.91
41,Saint Anthony,US,2021-09-25 02:38:21,45.0205,-93.218,55.04,62,1,5.01
42,Shihezi,CN,2021-09-25 02:38:22,44.3,86.0333,54.91,32,0,2.86
43,Hithadhoo,MV,2021-09-25 02:38:22,-0.6,73.0833,82.71,72,99,12.8
44,Georgetown,MY,2021-09-25 02:38:22,5.4112,100.3354,87.73,78,20,1.01
45,Hobart,AU,2021-09-25 02:36:51,-42.8794,147.3294,51.12,65,20,3.0
46,Harper,LR,2021-09-25 02:38:23,4.375,-7.7169,77.13,89,80,6.96
47,Khani,GE,2021-09-25 02:38:23,41.9563,42.9566,45.97,86,49,4.88
48,Qaanaaq,GL,2021-09-25 02:38:23,77.484,-69.3632,15.12,68,25,8.19
49,Port Alfred,ZA,2021-09-25 02:36:35,-33.5906,26.891,58.91,82,73,7.87
50,Bredasdorp,ZA,2021-09-25 02:36:30,-34.5322,20.0403,45.72,87,97,4.61
51,Mataura,NZ,2021-09-25 02:38:24,-46.1927,168.8643,47.48,86,96,10.71
52,Thompson,CA,2021-09-25 02:35:01,55.7435,-97.8558,42.96,93,90,10.36
53,Kodiak,US,2021-09-25 02:38:03,57.79,-152.4072,51.31,25,1,6.91
54,Tambilil,PH,2021-09-25 02:38:24,5.9622,124.6697,81.79,83,99,4.72
55,Rikitea,PF,2021-09-25 02:36:32,-23.1203,-134.9692,74.05,79,100,16.71
56,Vanimo,PG,2021-09-25 02:38:24,-2.6741,141.3028,84.04,75,55,8.88
57,Suphan Buri,TH,2021-09-25 02:38:25,14.4742,100.1222,77.99,95,100,1.25
58,Vaini,TO,2021-09-25 02:38:25,-21.2,-175.2,75.36,73,20,12.66
59,Sorong,ID,2021-09-25 02:38:25,-0.8833,131.25,83.59,68,100,4.16
60,Yellowknife,CA,2021-09-25 02:36:04,62.456,-114.3525,46.42,99,75,14.97
61,Bluff,NZ,2021-09-25 02:38:25,-46.6,168.3333,47.8,69,84,30.62
62,Lagoa,PT,2021-09-25 02:38:26,39.05,-27.9833,70.18,77,100,16.24
63,Dikson,RU,2021-09-25 02:36:54,73.5069,80.5464,35.96,88,100,17.38
64,Kutum,SD,2021-09-25 02:38:26,14.2,24.6667,73.99,23,99,10.27
65,Ponta Do Sol,PT,2021-09-25 02:38:26,32.6667,-17.1,69.71,69,1,0.72
66,Port Shepstone,ZA,2021-09-25 02:38:27,-30.7414,30.455,63.18,83,19,3.56
67,Emerald,AU,2021-09-25 02:38:27,-23.5333,148.1667,83.34,32,0,6.91
68,Charlestown,AU,2021-09-25 02:38:27,-32.95,151.6667,74.5,51,23,16.6
69,Klaksvik,FO,2021-09-25 02:36:38,62.2266,-6.589,45.52,75,100,10.16
70,Inirida,CO,2021-09-25 02:38:27,3.8653,-67.9239,72.39,95,100,1.9
71,Formosa,AR,2021-09-25 02:38:28,-26.1775,-58.1781,60.78,77,0,6.91
72,Xinan,CN,2021-09-25 02:38:28,26.72,119.8556,81.52,64,4,4.14
73,Savannakhet,LA,2021-09-25 02:38:28,16.566,104.751,77.02,83,75,4.61
74,Hofn,IS,2021-09-25 02:38:28,64.2539,-15.2082,37.94,91,100,13.04
75,Saint-Philippe,RE,2021-09-25 02:36:50,-21.3585,55.7679,69.35,83,4,13.96
76,Carnarvon,AU,2021-09-25 02:38:29,-24.8667,113.6333,71.67,64,40,16.11
77,Maneadero,MX,2021-09-25 02:38:29,31.7167,-116.5667,67.1,83,100,4.34
78,Butembo,CD,2021-09-25 02:38:29,0.15,29.2833,55.18,96,98,1.45
79,Butaritari,KI,2021-09-25 02:38:30,3.0707,172.7902,83.73,73,11,10.29
80,Esperance,AU,2021-09-25 02:38:30,-33.8667,121.9,60.64,48,43,13.18
81,Sao Jose Da Coroa Grande,BR,2021-09-25 02:38:30,-8.8978,-35.1478,75.04,86,34,9.73
82,Kaitangata,NZ,2021-09-25 02:38:30,-46.2817,169.8464,47.46,90,70,16.6
83,Yinchuan,CN,2021-09-25 02:38:31,38.4681,106.2731,68.14,59,100,2.46
84,Clyde River,CA,2021-09-25 02:38:31,70.4692,-68.5914,27.25,69,24,4.25
85,Ormara,PK,2021-09-25 02:33:36,25.2088,64.6357,82.78,73,16,8.34
86,Makamba,BI,2021-09-25 02:38:31,-4.1348,29.804,63.99,56,24,4.88
87,Cape Town,ZA,2021-09-25 02:35:43,-33.9258,18.4232,54.27,92,75,2.3
88,Norman Wells,CA,2021-09-25 02:38:32,65.282,-126.8329,37.44,93,90,11.5
89,Luderitz,NA,2021-09-25 02:38:32,-26.6481,15.1594,58.55,66,29,9.22
90,Katsuura,JP,2021-09-25 02:38:32,35.1333,140.3,77.11,73,55,15.59
91,Salekhard,RU,2021-09-25 02:38:33,66.53,66.6019,34.7,83,23,3.33
92,Coihaique,CL,2021-09-25 02:38:33,-45.5752,-72.0662,53.55,66,75,3.44
93,Khatanga,RU,2021-09-25 02:38:33,71.9667,102.5,33.87,78,100,10.07
94,Shache,CN,2021-09-25 02:38:33,38.4167,77.2406,74.55,13,0,5.46
95,Narsaq,GL,2021-09-25 02:38:34,60.9167,-46.05,34.02,43,0,4.21
96,Dobre Miasto,PL,2021-09-25 02:38:34,53.9867,20.3975,56.08,87,99,16.62
97,Bima,ID,2021-09-25 02:38:34,-8.4667,118.7167,94.05,41,13,1.07
98,Tuatapere,NZ,2021-09-25 02:38:35,-46.1333,167.6833,47.82,72,70,15.79
99,Banda Aceh,ID,2021-09-25 02:38:35,5.5577,95.3222,85.33,67,50,9.28
100,Nuuk,GL,2021-09-25 02:38:35,64.1835,-51.7216,31.48,52,0,17.63
101,Berlevag,NO,2021-09-25 02:38:35,70.8578,29.0864,46.26,89,100,9.57
102,Provideniya,RU,2021-09-25 02:38:36,64.3833,-173.3,33.51,89,100,16.71
103,Salalah,OM,2021-09-25 02:38:36,17.0151,54.0924,82.49,78,75,3.44
104,Gizo,SB,2021-09-25 02:38:36,-8.103,156.8419,84.49,70,84,2.95
105,Yenotayevka,RU,2021-09-25 02:38:36,47.2456,47.0281,50.81,79,10,7.87
106,Erdemli,TR,2021-09-25 02:38:37,36.605,34.3084,70.65,37,0,7.74
107,Chuy,UY,2021-09-25 02:38:37,-33.6971,-53.4616,57.04,96,52,6.71
108,Sopelana,ES,2021-09-25 02:38:37,43.3789,-2.9831,71.55,72,0,4.61
109,Kupang,ID,2021-09-25 02:38:37,-10.1667,123.5833,88.38,40,20,13.8
110,Bac Lieu,VN,2021-09-25 02:38:38,9.285,105.7244,84.78,68,98,7.23
111,Saskylakh,RU,2021-09-25 02:38:38,71.9167,114.0833,33.01,84,100,14.99
112,Oranjemund,NA,2021-09-25 02:38:38,-28.55,16.4333,54.64,90,25,6.33
113,Bonavista,CA,2021-09-25 02:38:39,48.6499,-53.1147,44.11,75,7,5.68
114,Ribeira Grande,PT,2021-09-25 02:37:00,38.5167,-28.7,70.66,82,100,20.02
115,Cabra,ES,2021-09-25 02:38:39,37.4725,-4.4421,66.18,81,97,4.45
116,Port Hedland,AU,2021-09-25 02:38:39,-20.3167,118.5667,80.65,65,43,10.36
117,Yulara,AU,2021-09-25 02:38:41,-25.2406,130.9889,82.24,9,98,16.11
118,Tabou,CI,2021-09-25 02:38:41,4.423,-7.3528,76.71,91,85,7.14
119,Geraldton,AU,2021-09-25 02:38:41,-28.7667,114.6,70.21,37,0,4.61
120,Lucapa,AO,2021-09-25 02:38:41,-8.4192,20.7447,63.0,88,31,0.58
121,Bemidji,US,2021-09-25 02:38:42,47.4736,-94.8803,51.26,63,90,5.75
122,East Retford,GB,2021-09-25 02:38:42,53.3221,-0.9432,64.99,86,20,4.61
123,Qesarya,IL,2021-09-25 02:38:42,32.5189,34.9046,70.52,67,2,7.94
124,Tarakan,ID,2021-09-25 02:38:42,3.3,117.6333,80.1,83,75,5.75
125,Bethel,US,2021-09-25 02:38:43,41.3712,-73.414,61.92,91,1,3.44
126,Timiryazevskiy,RU,2021-09-25 02:38:43,56.49,84.8769,39.16,95,100,4.25
127,Chokurdakh,RU,2021-09-25 02:38:43,70.6333,147.9167,34.57,86,100,16.37
128,Cabo San Lucas,MX,2021-09-25 02:37:46,22.8909,-109.9124,85.6,74,2,8.63
129,Valleyview,CA,2021-09-25 02:38:44,55.0667,-117.2859,60.84,41,98,6.91
130,San Quintin,MX,2021-09-25 02:38:44,30.4833,-115.95,69.3,78,85,1.43
131,Palora,EC,2021-09-25 02:38:44,-1.7,-77.9333,64.81,80,87,2.28
132,Vestmannaeyjar,IS,2021-09-25 02:38:44,63.4427,-20.2734,42.8,79,92,6.64
133,Lompoc,US,2021-09-25 02:38:45,34.6391,-120.4579,68.11,93,1,4.61
134,Moose Factory,CA,2021-09-25 02:38:45,51.2585,-80.6094,48.2,93,90,9.22
135,Belle Fourche,US,2021-09-25 02:38:45,44.6714,-103.8522,58.55,42,15,1.41
136,Tautira,PF,2021-09-25 02:38:46,-17.7333,-149.15,82.42,65,0,4.0
137,Betanzos,ES,2021-09-25 02:38:46,43.2804,-8.2147,63.1,90,90,1.01
138,New Norfolk,AU,2021-09-25 02:36:42,-42.7826,147.0587,50.76,67,75,1.99
139,Waddan,LY,2021-09-25 02:38:46,29.1614,16.139,70.66,70,0,6.71
140,Klyuchi,RU,2021-09-25 02:38:46,52.2667,79.1667,43.32,53,99,12.06
141,Lebu,CL,2021-09-25 02:38:47,-37.6167,-73.65,51.6,94,11,3.56
142,Upernavik,GL,2021-09-25 02:38:47,72.7868,-56.1549,20.75,80,35,6.02
143,Mayor Pablo Lagerenza,PY,2021-09-25 02:37:28,-19.9309,-60.7718,73.62,38,0,6.15
144,Vilhena,BR,2021-09-25 02:38:47,-12.7406,-60.1458,78.35,38,19,2.66
145,Pisco,PE,2021-09-25 02:34:55,-13.7,-76.2167,61.02,88,10,4.61
146,Sao Desiderio,BR,2021-09-25 02:38:48,-12.3633,-44.9733,74.84,62,61,2.33
147,Sur,OM,2021-09-25 02:38:48,22.5667,59.5289,84.76,65,100,3.4
148,El Alto,PE,2021-09-25 02:38:48,-4.2714,-81.2147,63.7,83,3,14.2
149,New Port Richey,US,2021-09-25 02:38:49,28.2442,-82.7193,82.36,81,15,1.99
150,Petropavlovsk-Kamchatskiy,RU,2021-09-25 02:38:49,53.0452,158.6483,55.99,54,75,11.18
151,Bakersfield,US,2021-09-25 02:36:09,35.3733,-119.0187,83.7,38,1,1.01
152,Lavrentiya,RU,2021-09-25 02:38:49,65.5833,-171.0,32.54,90,100,22.77
153,Codrington,AU,2021-09-25 02:38:49,-38.2667,141.9667,52.21,54,86,12.97
154,Avola,IT,2021-09-25 02:38:50,36.9113,15.1395,72.82,84,0,3.24
155,Bengkulu,ID,2021-09-25 02:38:50,-3.8004,102.2655,82.9,72,94,3.67
156,Ilulissat,GL,2021-09-25 02:38:50,69.2167,-51.1,24.82,54,75,2.3
157,Hambantota,LK,2021-09-25 02:38:51,6.1241,81.1185,80.94,100,20,6.91
158,Karakol,KG,2021-09-25 02:38:51,42.4907,78.3936,58.77,18,0,3.24
159,Poum,NC,2021-09-25 02:38:51,-20.2333,164.0167,71.8,67,22,2.51
160,Bathsheba,BB,2021-09-25 02:38:52,13.2167,-59.5167,79.41,89,40,6.91
161,Parkes,AU,2021-09-25 02:38:52,-33.1333,148.1833,64.35,39,0,3.0
162,Coahuayana,MX,2021-09-25 02:38:52,18.7333,-103.6833,78.57,92,92,0.34
163,Aden,YE,2021-09-25 02:38:52,12.7794,45.0367,85.71,76,87,1.57
164,Mabaruma,GY,2021-09-25 02:38:53,8.2,-59.7833,76.87,90,5,3.44
165,Iguape,BR,2021-09-25 02:38:53,-24.7081,-47.5553,64.94,88,96,4.99
166,Acapulco,MX,2021-09-25 02:37:29,16.8634,-99.8901,84.02,79,90,3.44
167,Torbay,CA,2021-09-25 02:35:31,47.6666,-52.7314,47.57,83,75,6.91
168,Kambarka,RU,2021-09-25 02:38:53,56.2694,54.2062,45.9,74,100,7.2
169,Marsa Matruh,EG,2021-09-25 02:38:54,31.3525,27.2453,71.04,61,4,12.91
170,Neiafu,TO,2021-09-25 02:38:54,-18.65,-173.9833,77.68,73,75,5.75
171,Abha,SA,2021-09-25 02:38:39,18.2164,42.5053,59.25,67,0,0.0
172,Bardstown,US,2021-09-25 02:38:54,37.8092,-85.4669,62.51,94,1,0.0
173,Esna,EG,2021-09-25 02:38:55,25.2934,32.554,78.82,44,0,10.96
174,Limbang,MY,2021-09-25 02:38:55,4.75,115.0,87.91,58,12,4.41
175,Yerbogachen,RU,2021-09-25 02:38:55,61.2767,108.0108,42.24,76,100,5.84
176,Udachnyy,RU,2021-09-25 02:38:55,66.4167,112.4,40.95,67,94,1.99
177,Jalu,LY,2021-09-25 02:38:56,29.0331,21.5482,69.22,50,0,9.17
178,Bambous Virieux,MU,2021-09-25 02:38:56,-20.3428,57.7575,72.21,83,40,14.97
179,Kununurra,AU,2021-09-25 02:36:12,-15.7667,128.7333,89.58,14,25,4.61
180,Comodoro Rivadavia,AR,2021-09-25 02:36:44,-45.8667,-67.5,58.86,55,0,8.05
181,Rio Gallegos,AR,2021-09-25 02:38:56,-51.6226,-69.2181,44.65,70,40,18.41
182,Mahebourg,MU,2021-09-25 02:38:57,-20.4081,57.7,72.25,83,40,14.97
183,Sao Joao Da Barra,BR,2021-09-25 02:38:57,-21.6403,-41.0511,70.48,70,100,19.19
184,Vrangel,RU,2021-09-25 02:38:57,42.7297,133.0839,64.87,68,81,6.55
185,Harij,IN,2021-09-25 02:38:57,23.7,71.9,83.44,78,75,8.9
186,Nanortalik,GL,2021-09-25 02:38:58,60.1432,-45.2371,36.39,65,2,9.89
187,Sidney,AU,2021-09-25 02:38:58,-33.8679,151.2073,74.55,64,20,5.99
188,Cherskiy,RU,2021-09-25 02:38:58,68.75,161.3,35.82,90,100,12.5
189,Kirkwall,GB,2021-09-25 02:38:59,58.9848,-2.9587,53.96,92,75,1.14
190,Neftegorsk,RU,2021-09-25 02:38:59,52.802,51.166,49.98,63,100,12.62
191,Talnakh,RU,2021-09-25 02:38:59,69.4865,88.3972,37.42,59,80,0.76
192,Mar Del Plata,AR,2021-09-25 02:34:50,-38.0023,-57.5575,55.13,59,0,1.99
193,Dalvik,IS,2021-09-25 02:39:00,65.9702,-18.5286,35.53,91,96,3.96
194,Buttelborn,DE,2021-09-25 02:39:00,49.9033,8.5233,57.43,87,20,3.44
195,East London,ZA,2021-09-25 02:39:00,-33.0153,27.9116,59.88,75,21,8.19
196,Fare,PF,2021-09-25 02:39:00,-16.7,-151.0167,77.52,62,0,1.97
197,Severo-Kurilsk,RU,2021-09-25 02:39:01,50.6789,156.125,47.57,93,100,30.11
198,Ponta Delgada,PT,2021-09-25 02:36:55,37.7333,-25.6667,68.72,77,40,8.05
199,Cidreira,BR,2021-09-25 02:37:14,-30.1811,-50.2056,60.06,85,34,2.91
200,Nuevo Progreso,MX,2021-09-25 02:39:01,23.1667,-97.95,79.59,65,35,1.19
201,Port Moresby,PG,2021-09-25 02:39:01,-9.4431,147.1797,87.22,70,40,11.5
202,Sola,VU,2021-09-25 02:39:02,-13.8833,167.55,79.09,79,69,15.39
203,Celestun,MX,2021-09-25 02:34:15,20.8667,-90.4,79.57,81,87,6.91
204,Ekibastuz,KZ,2021-09-25 02:39:02,51.6667,75.3667,44.22,46,37,8.66
205,Vila Velha,BR,2021-09-25 02:34:31,-20.3297,-40.2925,69.75,73,75,4.61
206,Phan Thiet,VN,2021-09-25 02:39:02,10.9333,108.1,81.73,78,100,4.14
207,Zhigansk,RU,2021-09-25 02:39:03,66.7697,123.3711,38.55,63,100,16.04
208,Juneau,US,2021-09-25 02:39:03,58.3019,-134.4197,48.25,93,75,6.91
209,Jeremie,HT,2021-09-25 02:39:03,18.65,-74.1167,81.16,82,81,1.41
210,Muros,ES,2021-09-25 02:39:03,42.7762,-9.0603,63.23,94,98,4.92
211,Boguchany,RU,2021-09-25 02:39:04,58.3814,97.4531,40.6,72,92,3.83
212,Kytmanovo,RU,2021-09-25 02:39:04,53.4593,85.4479,38.46,68,100,17.9
213,Asau,RO,2021-09-25 02:37:32,46.4333,26.4,47.75,94,75,4.88
214,Brownsville,US,2021-09-25 02:37:07,25.9018,-97.4975,79.92,71,7,1.99
215,Louga,RU,2021-09-25 02:39:04,58.7372,29.8453,43.99,96,100,6.67
216,Nome,US,2021-09-25 02:39:05,64.5011,-165.4064,42.87,87,90,12.66
217,Chiang Klang,TH,2021-09-25 02:39:05,19.2938,100.8617,79.93,81,100,1.66
218,Wajima,JP,2021-09-25 02:39:05,37.4,136.9,74.08,60,20,9.22
219,Ancud,CL,2021-09-25 02:39:05,-41.8697,-73.8203,50.43,93,100,11.12
220,Fukue,JP,2021-09-25 02:39:06,32.6881,128.8419,79.16,78,40,6.91
221,Weilheim,DE,2021-09-25 02:39:06,47.8333,11.15,53.53,90,0,3.38
222,Lhokseumawe,ID,2021-09-25 02:39:06,5.1801,97.1507,84.61,70,80,1.97
223,Chiredzi,ZW,2021-09-25 02:39:07,-21.05,31.6667,59.56,77,0,3.56
224,Ishigaki,JP,2021-09-25 02:39:07,24.3448,124.1572,86.13,74,40,16.11
225,Shingu,JP,2021-09-25 02:39:07,33.7333,135.9833,81.59,70,17,10.6
226,Paldiski,EE,2021-09-25 02:39:07,59.3567,24.0531,48.45,95,100,7.29
227,Floresti,MD,2021-09-25 02:39:08,47.8933,28.3014,49.71,75,16,14.09
228,Salvador,SV,2021-09-25 02:39:08,13.8333,-88.9167,73.8,96,90,0.29
229,Alugan,PH,2021-09-25 02:39:08,12.2188,125.4808,86.47,68,29,7.11
230,Barrow,US,2021-09-25 02:36:48,71.2906,-156.7887,28.42,93,75,0.0
231,Sao Miguel Do Araguaia,BR,2021-09-25 02:39:09,-13.275,-50.1628,86.52,27,24,1.74
232,Tiksi,RU,2021-09-25 02:39:09,71.6872,128.8694,33.89,76,100,20.69
233,Tessalit,ML,2021-09-25 02:39:09,20.1986,1.0114,85.57,10,5,10.02
234,Nara,JP,2021-09-25 02:39:09,34.6851,135.8049,81.91,58,30,7.18
235,Amahai,ID,2021-09-25 02:39:10,-3.3333,128.9167,82.62,74,31,5.88
236,Ilhabela,BR,2021-09-25 02:39:10,-23.7781,-45.3581,66.79,87,98,8.14
237,Gat,IL,2021-09-25 02:39:09,31.61,34.7642,69.08,59,84,4.18
238,Brasilia De Minas,BR,2021-09-25 02:39:10,-16.2064,-44.4333,74.75,46,26,11.97
239,Castro,BR,2021-09-25 02:39:11,-24.7911,-50.0119,55.18,97,34,5.1
240,Muborak,UZ,2021-09-25 02:39:11,39.2553,65.1528,73.2,17,0,8.25
241,Puerto Lopez,CO,2021-09-25 02:39:11,4.0845,-72.956,72.07,98,100,6.15
242,Dawlatabad,AF,2021-09-25 02:39:12,36.4141,64.9053,76.75,14,0,2.1
243,Stornoway,GB,2021-09-25 02:39:12,58.2093,-6.3865,55.36,82,75,11.5
244,Zhanaozen,KZ,2021-09-25 02:39:12,43.3,52.8,57.11,80,2,14.18
245,Kloulklubed,PW,2021-09-25 02:39:13,7.0419,134.2556,81.1,90,100,26.06
246,Iquique,CL,2021-09-25 02:39:13,-20.2208,-70.1431,59.04,73,6,2.42
247,Lasa,IT,2021-09-25 02:39:13,46.6166,10.7002,60.26,66,0,2.17
248,Ahipara,NZ,2021-09-25 02:39:13,-35.1667,173.1667,60.58,69,6,8.99
249,Half Moon Bay,US,2021-09-25 02:39:14,37.4636,-122.4286,76.91,85,90,4.61
250,Bandarban,BD,2021-09-25 02:39:14,22.1965,92.2262,83.91,68,49,1.19
251,Tshikapa,CD,2021-09-25 02:39:14,-6.4167,20.8,70.11,82,38,1.95
252,Lata,PT,2021-09-25 02:39:14,40.1629,-8.3327,62.82,90,100,4.43
253,Tazovskiy,RU,2021-09-25 02:37:16,67.4667,78.7,34.14,75,12,8.21
254,Ugoofaaru,MV,2021-09-25 02:39:15,5.6667,73.0,82.35,71,98,15.32
255,Derzhavinsk,KZ,2021-09-25 02:39:15,51.1,66.3167,43.83,46,74,11.16
256,Floro,NO,2021-09-25 02:39:15,61.5996,5.0328,50.23,87,75,16.11
257,Olafsvik,IS,2021-09-25 02:39:16,64.8945,-23.7142,40.68,76,90,17.2
258,Jiayuguan,CN,2021-09-25 02:39:16,39.8167,98.3,55.18,44,9,6.73
259,Orange,US,2021-09-25 02:35:26,33.7,-117.7675,80.62,87,40,0.0
260,Sao Filipe,CV,2021-09-25 02:39:16,14.8961,-24.4956,78.13,73,100,5.44
261,Mount Gambier,AU,2021-09-25 02:39:17,-37.8333,140.7667,51.71,66,75,14.97
262,Riyadh,SA,2021-09-25 02:37:06,24.6877,46.7219,77.14,16,51,3.65
263,Fortuna,US,2021-09-25 02:39:17,40.5982,-124.1573,60.1,69,1,1.01
264,Susanville,US,2021-09-25 02:35:52,40.4163,-120.653,67.82,30,2,1.99
265,Bay Roberts,CA,2021-09-25 02:39:17,47.5999,-53.2648,48.33,84,6,7.0
266,Avera,US,2021-09-25 02:39:18,33.194,-82.5271,62.26,55,0,4.5
267,Hami,CN,2021-09-25 02:39:18,42.8,93.45,63.64,28,45,4.99
268,Vila Franca Do Campo,PT,2021-09-25 02:39:18,37.7167,-25.4333,68.41,80,99,6.11
269,Palatka,US,2021-09-25 02:34:35,29.6486,-81.6376,79.99,79,81,3.89
270,Yilan,TW,2021-09-25 02:39:19,24.757,121.753,90.82,86,100,2.73
271,Broome,US,2021-09-25 02:39:19,42.2506,-75.833,56.64,75,1,5.75
272,Yongzhou,CN,2021-09-25 02:39:19,26.4559,111.5988,94.19,39,0,9.51
273,Anadyr,RU,2021-09-25 02:39:19,64.75,177.4833,30.7,80,0,8.01
274,Sebrovo,RU,2021-09-25 02:39:20,50.0981,43.2976,49.87,72,98,5.17
275,Borogontsy,RU,2021-09-25 02:39:20,62.6683,131.1683,38.7,95,100,7.63
276,Thaton,MM,2021-09-25 02:39:20,16.9206,97.3714,78.94,88,100,3.33
277,Margate,GB,2021-09-25 02:35:39,51.3813,1.3862,61.03,92,37,7.14
278,Koszalin,PL,2021-09-25 02:39:21,54.1944,16.1722,60.06,89,100,21.5
279,Tasiilaq,GL,2021-09-25 02:39:21,65.6145,-37.6368,29.1,77,98,8.21
280,Istmina,CO,2021-09-25 02:39:21,5.1605,-76.684,74.01,94,100,2.28
281,Paamiut,GL,2021-09-25 02:39:22,61.994,-49.6678,32.97,53,0,19.42
282,Griffith,US,2021-09-25 02:39:22,41.5284,-87.4237,73.33,53,90,7.0
283,Bosaso,SO,2021-09-25 02:39:22,11.2842,49.1816,87.37,51,35,12.71
284,Sisimiut,GL,2021-09-25 02:39:22,66.9395,-53.6735,29.8,74,36,7.67
285,Puerto Escondido,MX,2021-09-25 02:39:23,15.85,-97.0667,80.17,85,100,3.6
286,Olutanga,PH,2021-09-25 02:39:23,7.3106,122.8464,83.37,75,52,10.04
287,Leningradskiy,RU,2021-09-25 02:39:23,69.3833,178.4167,26.65,79,98,5.79
288,La Roda,ES,2021-09-25 02:39:24,39.2167,-2.15,64.13,88,74,0.65
289,Maniitsoq,GL,2021-09-25 02:39:24,65.4167,-52.9,31.17,58,4,7.27
290,Ust-Kulom,RU,2021-09-25 02:39:24,61.6864,53.6902,45.3,91,100,8.41
291,Port Hawkesbury,CA,2021-09-25 02:34:44,45.6169,-61.3485,62.87,97,96,5.01
292,Wanning,CN,2021-09-25 02:39:24,18.8003,110.3967,83.73,80,98,8.68
293,Dombas,NO,2021-09-25 02:39:25,62.0696,9.1235,37.63,92,24,11.48
294,Alofi,NU,2021-09-25 02:39:25,-19.0595,-169.9187,75.09,83,27,10.36
295,Pravia,ES,2021-09-25 02:39:03,43.4906,-6.1508,58.23,100,20,5.75
296,Ixtapa,MX,2021-09-25 02:37:19,20.7,-105.2,82.22,86,100,1.9
297,Barsovo,RU,2021-09-25 02:39:25,61.1667,73.1667,33.93,68,82,8.68
298,Moranbah,AU,2021-09-25 02:39:26,-22.0016,148.0466,83.1,23,0,7.56
299,Ornskoldsvik,SE,2021-09-25 02:39:26,63.2909,18.7153,40.15,100,40,4.61
300,Tuzla,BA,2021-09-25 02:39:26,44.5428,18.6694,42.76,100,0,1.14
301,Tuyen Quang,VN,2021-09-25 02:36:35,21.8233,105.2181,75.85,95,99,0.78
302,Ginir,ET,2021-09-25 02:39:26,7.1333,40.7,58.96,77,100,7.36
303,Tamayo,DO,2021-09-25 02:39:27,18.3947,-71.2029,78.17,83,96,0.4
304,Sinnamary,GF,2021-09-25 02:37:32,5.3833,-52.95,79.63,87,96,8.55
305,Bryan,US,2021-09-25 02:39:27,30.6744,-96.37,74.12,56,1,4.61
306,Sakaraha,MG,2021-09-25 02:39:27,-22.9,44.5333,62.02,73,3,3.44
307,Wewak,PG,2021-09-25 02:39:28,-3.5534,143.6268,84.96,70,18,7.96
308,Shiyan,CN,2021-09-25 02:39:28,32.6475,110.7781,81.41,85,100,4.36
309,Omsukchan,RU,2021-09-25 02:39:28,62.5333,155.8,49.59,45,38,4.38
310,Dunda,TZ,2021-09-25 02:39:28,-8.1167,34.25,61.34,73,3,3.18
311,Sao Felix Do Xingu,BR,2021-09-25 02:39:29,-6.6447,-51.995,77.23,57,54,1.19
312,Dongsheng,CN,2021-09-25 02:39:29,39.8161,109.9776,66.02,57,100,12.28
313,Saint-Georges,GD,2021-09-25 02:37:43,12.0564,-61.7485,82.08,83,40,5.75
314,Laguna,US,2021-09-25 02:39:29,38.421,-121.4238,90.1,29,1,5.75
315,Deputatskiy,RU,2021-09-25 02:39:29,69.3,139.9,30.87,70,100,12.88
316,Broken Hill,AU,2021-09-25 02:39:30,-31.95,141.4333,58.71,41,40,11.5
317,Saint-Francois,FR,2021-09-25 02:39:30,46.4154,3.9054,54.84,100,0,1.14
318,Vinh,VN,2021-09-25 02:39:30,18.6667,105.6667,77.43,92,100,0.87
319,Altay,CN,2021-09-25 02:39:31,47.8667,88.1167,39.31,54,69,4.85
320,Matara,LK,2021-09-25 02:39:31,5.9485,80.5353,81.16,80,96,14.45
321,Severodvinsk,RU,2021-09-25 02:38:47,64.5635,39.8302,48.31,94,98,12.17
322,Pasni,PK,2021-09-25 02:39:31,25.2631,63.471,82.29,68,70,8.03
323,Vao,NC,2021-09-25 02:39:31,-22.6667,167.4833,68.76,66,62,11.16
324,Gorontalo,ID,2021-09-25 02:39:32,0.5412,123.0595,86.77,65,54,6.02
325,Karimganj,IN,2021-09-25 02:39:32,24.8667,92.35,83.97,82,33,3.47
326,Kasongo,CD,2021-09-25 02:39:32,-4.45,26.6667,66.16,96,82,3.2
327,Collie,AU,2021-09-25 02:39:33,-33.3667,116.15,57.97,53,51,13.69
328,Westport,US,2021-09-25 02:38:38,41.1415,-73.3579,67.17,88,1,3.0
329,Tilichiki,RU,2021-09-25 02:39:33,60.4667,166.1,45.19,40,98,4.27
330,Batticaloa,LK,2021-09-25 02:39:33,7.7102,81.6924,82.24,74,97,4.47
331,Pingxiang,CN,2021-09-25 02:39:33,27.6167,113.85,95.16,40,0,3.87
332,Portland,US,2021-09-25 02:36:17,45.5234,-122.6762,81.18,42,1,1.01
333,Constitucion,CL,2021-09-25 02:39:34,-35.3333,-72.4167,51.91,93,5,4.92
334,Jiuquan,CN,2021-09-25 02:39:34,39.7432,98.5174,57.76,42,0,7.47
335,Machiques,VE,2021-09-25 02:39:34,10.0644,-72.545,76.55,84,100,4.09
336,Fort-Shevchenko,KZ,2021-09-25 02:39:35,44.5086,50.263,60.19,66,100,17.83
337,Hvide Sande,DK,2021-09-25 02:39:35,56.0045,8.1294,59.29,82,58,19.55
338,Contai,IN,2021-09-25 02:39:35,21.7786,87.7536,83.17,79,100,4.52
339,Hailin,CN,2021-09-25 02:39:35,44.5833,129.4167,61.38,69,100,5.35
340,Benemerito De Las Americas,MX,2021-09-25 02:39:36,16.5167,-90.6439,72.1,99,100,1.1
341,Mangrol,IN,2021-09-25 02:39:36,21.1167,70.1167,81.05,80,20,8.84
342,Saint George,US,2021-09-25 02:39:36,37.1041,-113.5841,88.39,13,1,3.0
343,Casas Grandes,MX,2021-09-25 02:39:36,30.3667,-107.95,65.44,76,100,2.39
344,Port-Gentil,GA,2021-09-25 02:39:37,-0.7193,8.7815,76.96,88,100,10.87
345,Nanguneri,IN,2021-09-25 02:39:37,8.4933,77.6581,83.41,62,100,6.64
346,Urengoy,RU,2021-09-25 02:39:37,65.9667,78.3667,34.63,76,6,11.32
347,Baherden,TM,2021-09-25 02:39:38,38.4362,57.4316,77.77,31,0,6.51
348,Teknaf,BD,2021-09-25 02:39:38,20.8624,92.3058,84.11,75,82,7.65
349,Kruisfontein,ZA,2021-09-25 02:39:38,-34.0033,24.7314,52.2,87,46,5.21
350,Kalanguy,RU,2021-09-25 02:39:38,51.0167,116.5167,59.58,45,100,8.41
351,Carambei,BR,2021-09-25 02:39:39,-24.9178,-50.0972,54.18,95,15,5.23
352,Hualmay,PE,2021-09-25 02:39:39,-11.0964,-77.6139,62.19,85,59,7.58
353,Saint-Augustin,CA,2021-09-25 02:39:39,51.226,-58.6502,46.49,84,40,7.52
354,Porto Walter,BR,2021-09-25 02:39:39,-8.2686,-72.7439,71.65,82,9,1.88
355,Tanete,ID,2021-09-25 02:39:40,-3.9443,119.7848,85.17,65,92,2.66
356,Karasjok,NO,2021-09-25 02:39:40,69.4719,25.5112,42.91,97,100,13.82
357,Dudinka,RU,2021-09-25 02:39:40,69.4058,86.1778,35.87,62,100,2.19
358,Lugovoy,KZ,2021-09-25 02:39:41,42.9472,72.7644,59.47,25,0,6.38
359,Mahon,ES,2021-09-25 02:39:41,39.8885,4.2658,73.96,94,90,2.3
360,Longyearbyen,SJ,2021-09-25 02:37:21,78.2186,15.6401,39.04,93,75,0.0
361,Kavieng,PG,2021-09-25 02:39:41,-2.5744,150.7967,83.66,72,14,10.2
362,Kaolinovo,BG,2021-09-25 02:39:41,43.6167,27.1167,58.78,65,50,5.53
363,Faya,SA,2021-09-25 02:39:42,18.3851,42.4509,59.52,61,91,1.59
364,Komsomolskiy,UZ,2021-09-25 02:39:42,40.4272,71.7189,61.52,41,0,4.61
365,Miraflores,MX,2021-09-25 02:39:42,19.2167,-98.8083,65.03,86,91,3.78
366,Faanui,PF,2021-09-25 02:36:56,-16.4833,-151.75,77.23,62,0,2.06
367,Ordu,TR,2021-09-25 02:35:51,40.9086,37.6845,39.7,66,97,7.96
368,Jinxiang,CN,2021-09-25 02:39:43,27.4327,120.6062,81.34,65,31,8.61
369,Aklavik,CA,2021-09-25 02:39:43,68.2191,-135.0107,36.32,98,100,17.94
370,Mandal,IN,2021-09-25 02:39:43,25.45,74.5667,82.13,71,37,3.27
371,Haimen,CN,2021-09-25 02:39:43,23.1935,116.6142,87.69,58,0,15.77
372,Bassila,BJ,2021-09-25 02:39:44,9.0081,1.6654,70.99,98,100,1.74
373,Sioux Lookout,CA,2021-09-25 02:39:44,50.1001,-91.917,48.58,71,40,4.61
374,Grand Gaube,MU,2021-09-25 02:39:44,-20.0064,57.6608,73.38,71,32,11.01
375,Byron Bay,AU,2021-09-25 02:35:58,-28.65,153.6167,87.06,41,13,6.78
376,Merauke,ID,2021-09-25 02:39:45,-8.4667,140.3333,81.41,78,49,17.34
377,Oranjestad,AW,2021-09-25 02:39:45,12.524,-70.027,84.15,83,20,8.99
378,Tiarei,PF,2021-09-25 02:39:32,-17.5333,-149.3333,82.42,63,0,3.38
379,Luqiao,CN,2021-09-25 02:39:45,28.5808,121.3772,85.01,65,6,5.35
380,Evensk,RU,2021-09-25 02:39:46,61.95,159.2333,47.73,69,15,5.75
381,Guadalupe,MX,2021-09-25 02:39:46,25.6833,-100.25,79.39,69,17,5.17
382,Teeli,RU,2021-09-25 02:39:46,51.0333,90.2333,35.33,62,100,0.89
383,Beringovskiy,RU,2021-09-25 02:39:11,63.05,179.3167,32.83,90,100,22.91
384,Moerai,PF,2021-09-25 02:39:47,-22.4333,-151.3333,72.41,61,26,4.16
385,Mandali,IQ,2021-09-25 02:39:47,33.7499,45.5541,81.5,31,0,10.85
386,Gengenbach,DE,2021-09-25 02:39:47,48.4,8.0167,59.68,83,0,3.47
387,San Patricio,US,2021-09-25 02:39:47,28.017,-97.5169,78.82,58,67,6.98
388,Chester,US,2021-09-25 02:35:23,40.1254,-75.8749,58.55,91,1,1.01
389,Guerrero Negro,MX,2021-09-25 02:35:46,27.9769,-114.0611,72.45,72,100,13.98
390,Messina,IT,2021-09-25 02:39:13,38.1933,15.5497,73.72,82,0,0.0
391,Parambu,BR,2021-09-25 02:39:48,-6.2111,-40.6944,77.61,60,29,10.65
392,Bakurianis Andeziti,GE,2021-09-25 02:39:48,41.7337,43.4724,36.79,92,36,4.59
393,Salinas,US,2021-09-25 02:35:21,36.6777,-121.6555,73.65,83,90,12.66
394,Marsh Harbour,BS,2021-09-25 02:35:30,26.5412,-77.0636,83.21,68,20,2.71
395,Kurilsk,RU,2021-09-25 02:39:48,45.2333,147.8833,54.03,79,88,22.06
396,Quijingue,BR,2021-09-25 02:39:49,-10.7525,-39.2092,68.41,84,87,7.87
397,Kamina,CD,2021-09-25 02:39:49,-8.7386,24.9906,62.06,87,56,3.18
398,Saldanha,ZA,2021-09-25 02:39:49,-33.0117,17.9442,42.85,86,100,3.78
399,De Aar,ZA,2021-09-25 02:39:49,-30.6497,24.0123,57.81,15,32,1.52
400,Cortes,ES,2021-09-25 02:39:50,41.9395,-1.4396,63.09,83,61,6.93
401,Hukuntsi,BW,2021-09-25 02:39:50,-24.0,21.75,63.59,34,6,6.62
402,Kita,ML,2021-09-25 02:39:50,13.0349,-9.4895,69.1,93,100,9.93
403,Pafos,CY,2021-09-25 02:39:50,34.7667,32.4167,66.11,59,0,9.22
404,Hay River,CA,2021-09-25 02:36:40,60.8156,-115.7999,53.58,66,20,6.91
405,Belaya Gora,RU,2021-09-25 02:39:51,68.5333,146.4167,37.29,64,99,15.35
406,Kahului,US,2021-09-25 02:37:12,20.8947,-156.47,84.22,70,40,20.71
407,Atherton,GB,2021-09-25 02:37:45,53.5237,-2.4935,64.72,92,100,4.0
408,Uyuni,BO,2021-09-25 02:39:51,-20.4597,-66.825,48.0,20,1,4.68
409,Marzuq,YE,2021-09-25 02:39:51,14.4,46.4667,73.33,45,67,3.33
410,Sakakah,SA,2021-09-25 02:39:52,29.9697,40.2064,72.97,54,0,7.47
411,Baltasi,RU,2021-09-25 02:39:52,56.3462,50.2062,44.73,93,100,11.48
412,Phalombe,MW,2021-09-25 02:39:52,-15.8064,35.6507,61.5,82,0,2.08
413,San Policarpo,PH,2021-09-25 02:39:53,12.1791,125.5072,86.22,69,23,7.29
414,Hamamatsu,JP,2021-09-25 02:39:53,34.7,137.7333,86.02,56,0,5.99
415,Billerica,US,2021-09-25 02:39:53,42.5584,-71.269,69.66,79,90,0.0
416,Jian,CN,2021-09-25 02:39:53,27.1172,114.9793,93.67,44,2,4.34
417,Krasnokamensk,RU,2021-09-25 02:39:54,50.0979,118.0369,59.86,67,10,8.23
418,Whitianga,NZ,2021-09-25 02:39:54,-36.8333,175.7,67.01,55,2,7.78
419,Kasongo-Lunda,CD,2021-09-25 02:39:54,-6.4667,16.8167,70.79,82,34,1.72
420,Gimli,CA,2021-09-25 02:39:54,50.6336,-96.9907,55.06,66,100,6.91
421,Hohhot,CN,2021-09-25 02:39:55,40.8106,111.6522,68.29,64,40,6.71
422,Northam,GB,2021-09-25 02:39:55,51.0333,-4.2167,61.48,98,100,2.46
423,Dakar,SN,2021-09-25 02:36:04,14.6937,-17.4441,79.68,78,80,8.77
424,Marystown,CA,2021-09-25 02:39:55,47.1666,-55.1483,52.86,100,3,3.0
425,Souillac,MU,2021-09-25 02:39:56,-20.5167,57.5167,73.36,83,40,14.97
426,Praia Da Vitoria,PT,2021-09-25 02:39:56,38.7333,-27.0667,70.75,77,40,12.41
427,Hasaki,JP,2021-09-25 02:36:42,35.7333,140.8333,75.6,70,78,17.96
428,Kaeo,NZ,2021-09-25 02:39:56,-35.1,173.7833,68.32,61,0,9.8
429,Qui Nhon,VN,2021-09-25 02:37:14,13.7667,109.2333,80.11,79,100,1.32
430,Nabire,ID,2021-09-25 02:39:56,-3.3667,135.4833,86.65,62,41,5.14
431,Kuusamo,FI,2021-09-25 02:39:57,65.9667,29.1833,42.84,93,90,8.05
432,Prainha,BR,2021-09-25 02:39:57,-1.8,-53.48,80.96,62,54,5.82
433,Quatre Cocos,MU,2021-09-25 02:39:57,-20.2078,57.7625,73.09,75,52,19.6
434,Calvinia,ZA,2021-09-25 02:39:58,-31.4707,19.776,56.55,26,15,3.22
435,Namatanai,PG,2021-09-25 02:39:58,-3.6667,152.4333,83.57,71,26,7.63
436,Nyurba,RU,2021-09-25 02:38:55,63.2842,118.3319,46.51,58,16,3.6
437,Gotsu,JP,2021-09-25 02:39:58,35.0,132.2167,77.14,60,36,10.04
438,Kangaatsiaq,GL,2021-09-25 02:39:58,68.3065,-53.4641,29.23,84,100,4.74
439,Young,UY,2021-09-25 02:39:59,-32.6833,-57.6333,55.22,93,32,7.63
440,Hailun,CN,2021-09-25 02:39:59,47.45,126.9333,59.0,60,100,3.67
441,Iracoubo,GF,2021-09-25 02:39:59,5.4802,-53.2011,79.79,86,76,8.59
442,Sangar,RU,2021-09-25 02:39:59,63.9242,127.4739,40.42,83,99,9.55
443,Montepuez,MZ,2021-09-25 02:40:00,-13.1256,38.9997,66.04,89,75,6.2
444,Wichita Falls,US,2021-09-25 02:39:09,33.9137,-98.4934,75.25,43,1,3.0
445,Sampit,ID,2021-09-25 02:40:00,-2.5333,112.95,89.98,57,84,2.21
446,Salamiyah,SY,2021-09-25 02:40:01,35.0113,37.0532,57.96,67,0,2.13
447,Tumbi,TZ,2021-09-25 02:40:01,-5.0667,32.7333,67.37,56,13,6.2
448,Xiaoweizhai,CN,2021-09-25 02:40:01,26.1903,107.5125,78.21,72,100,8.63
449,Skjervoy,NO,2021-09-25 02:40:01,70.0311,20.9714,47.66,82,100,18.7
450,Kharan,PK,2021-09-25 02:40:02,28.5833,65.4167,81.68,21,3,1.01
451,Fort Nelson,CA,2021-09-25 02:40:03,58.8053,-122.7002,54.99,54,40,5.75
452,Cape Canaveral,US,2021-09-25 02:36:15,28.4058,-80.6048,83.07,77,75,6.91
453,Keita,NE,2021-09-25 02:40:03,14.7551,5.7749,82.8,46,67,7.18
454,Lagos,NG,2021-09-25 02:40:03,6.5833,3.75,77.32,93,88,3.38
455,Mwinilunga,ZM,2021-09-25 02:40:04,-11.7358,24.4293,60.8,39,11,4.14
456,Usman,RU,2021-09-25 02:40:04,52.0466,39.7288,44.64,73,100,5.95
457,Baykit,RU,2021-09-25 02:40:04,61.67,96.37,38.35,75,98,3.96
458,Murfreesboro,US,2021-09-25 02:38:48,35.8456,-86.3903,61.92,88,40,0.0
459,Chinchani,IN,2021-09-25 02:40:05,19.8667,72.7,80.74,78,100,3.76
460,Mandera,KE,2021-09-25 02:40:05,3.9366,41.867,75.56,58,74,11.14
461,Gamba,GA,2021-09-25 02:40:05,-2.65,10.0,75.24,89,100,4.97
462,Ballesteros,PH,2021-09-25 02:40:06,18.4126,121.5152,84.61,73,90,3.98
463,Mitu,CO,2021-09-25 02:39:40,1.1983,-70.1733,68.97,99,94,0.51
464,Hobyo,SO,2021-09-25 02:39:10,5.3505,48.5268,77.04,85,75,19.98
465,Aqtobe,KZ,2021-09-25 02:40:06,50.2797,57.2072,53.69,28,0,17.9
466,Crossville,US,2021-09-25 02:40:06,35.949,-85.0269,55.53,92,1,1.01
467,Gao,ML,2021-09-25 02:40:07,16.6362,1.637,90.0,29,80,3.76
468,Adrar,MR,2021-09-25 02:40:07,20.5022,-10.0711,87.51,21,68,7.43
469,Mpraeso,GH,2021-09-25 02:40:07,6.5932,-0.7346,68.2,99,99,2.35
470,Aginskoye,RU,2021-09-25 02:40:08,51.1,114.53,58.6,56,95,15.26
471,Cockburn Town,TC,2021-09-25 02:40:08,21.4612,-71.1419,82.72,73,97,9.64
472,Sarangani,PH,2021-09-25 02:40:08,5.4033,125.4636,81.25,78,100,14.38
473,Flin Flon,CA,2021-09-25 02:40:08,54.7682,-101.865,43.9,78,100,0.69
474,Quelimane,MZ,2021-09-25 02:40:09,-17.8786,36.8883,64.35,94,0,0.0
475,Moosomin,CA,2021-09-25 02:40:09,50.1333,-101.6677,46.63,38,39,8.59
476,Saint-Joseph,RE,2021-09-25 02:40:09,-21.3667,55.6167,68.36,78,4,12.66
477,Singaraja,ID,2021-09-25 02:40:09,-8.112,115.0882,81.97,66,73,2.98
478,Gushikawa,JP,2021-09-25 02:40:10,26.3544,127.8686,88.83,71,20,13.8
479,Xingcheng,CN,2021-09-25 02:40:10,40.6167,120.7167,67.51,83,100,7.4
480,Fairbanks,US,2021-09-25 02:40:10,64.8378,-147.7164,35.6,90,90,3.44
481,Kissidougou,GN,2021-09-25 02:40:11,9.1848,-10.0999,69.44,95,91,1.9
482,Sayan,PE,2021-09-25 02:40:11,-11.1361,-77.1933,69.57,63,13,1.57
483,Rio Grande,BR,2021-09-25 02:40:11,-32.035,-52.0986,57.11,95,36,9.71
484,Koscian,PL,2021-09-25 02:36:51,52.0883,16.6487,62.33,86,87,14.0
485,Rodrigues Alves,BR,2021-09-25 02:40:12,-7.738,-72.6509,70.97,98,38,1.28
486,Le Vauclin,MQ,2021-09-25 02:40:12,14.5452,-60.8388,79.84,89,0,2.3
487,Paine,CL,2021-09-25 02:40:12,-33.8167,-70.75,64.71,81,0,2.04
488,Orahovac,XK,2021-09-25 02:40:12,42.3994,20.6547,49.86,66,0,0.94
489,Sokolo,ML,2021-09-25 02:40:13,14.7328,-6.1219,81.25,62,98,7.9
490,Gunjur,GM,2021-09-25 02:40:13,13.2019,-16.7339,77.07,94,75,0.0
491,Santa Isabel Do Rio Negro,BR,2021-09-25 02:40:13,-0.4139,-65.0192,72.0,99,100,1.19
492,Arroyo,ES,2021-09-25 02:40:13,41.6096,-4.7969,64.18,81,0,3.44
493,Kirensk,RU,2021-09-25 02:40:14,57.7853,108.1119,43.34,85,100,4.27
494,Touros,BR,2021-09-25 02:35:50,-5.1989,-35.4608,77.9,79,0,15.97
495,Oeiras Do Para,BR,2021-09-25 02:40:14,-2.0031,-49.8544,75.38,87,24,4.27
496,Sambava,MG,2021-09-25 02:40:14,-14.2667,50.1667,70.65,87,57,9.66
497,Boyolangu,ID,2021-09-25 02:40:15,-8.1181,111.8935,84.78,66,51,5.44
498,Duiwelskloof,ZA,2021-09-25 02:40:15,-23.6934,30.14,59.94,48,0,2.37
499,Coos Bay,US,2021-09-25 02:40:15,43.3665,-124.2179,65.32,88,1,4.61
500,Kavaratti,IN,2021-09-25 02:40:15,10.5669,72.642,81.77,78,100,14.56
501,Nemuro,JP,2021-09-25 02:40:16,43.3236,145.575,59.43,65,1,15.43
502,Ozerki,RU,2021-09-25 02:40:16,57.6167,39.8833,42.82,93,0,0.0
503,Ngunguru,NZ,2021-09-25 02:40:16,-35.6167,174.5,68.16,69,1,8.14
504,Mayo,US,2021-09-25 02:40:17,38.8876,-76.5119,62.55,91,1,1.01
505,Helena,US,2021-09-25 02:40:17,46.5927,-112.0361,65.39,41,1,1.99
506,Ostrovnoy,RU,2021-09-25 02:40:17,68.0531,39.5131,47.08,92,100,18.52
507,Bila Tserkva,UA,2021-09-25 02:40:18,49.8094,30.1121,46.85,90,89,12.35
508,Bombay,IN,2021-09-25 02:38:02,19.0144,72.8479,80.58,94,40,0.0
509,Vostok,RU,2021-09-25 02:40:18,46.4856,135.8833,60.8,44,100,2.37
510,Mangan,IN,2021-09-25 02:40:18,27.5167,88.5333,80.74,76,87,3.58
511,Yeppoon,AU,2021-09-25 02:40:18,-23.1333,150.7333,80.38,54,0,11.59
512,Odweyne,SO,2021-09-25 02:40:19,9.4092,45.064,71.58,56,100,8.52
513,Baruun-Urt,MN,2021-09-25 02:40:19,46.6806,113.2792,64.63,60,100,11.43
514,Calbuco,CL,2021-09-25 02:40:19,-41.768,-73.1273,49.21,93,79,3.91
515,Salta,AR,2021-09-25 02:40:19,-24.7859,-65.4117,57.79,51,0,1.01
516,Aldan,RU,2021-09-25 02:40:20,58.6031,125.3894,40.64,66,100,3.62
517,Yar-Sale,RU,2021-09-25 02:40:20,66.8333,70.8333,36.01,81,15,6.13
518,Gevgelija,MK,2021-09-25 02:39:06,41.1392,22.5025,65.57,34,0,6.6
519,Saryozek,KZ,2021-09-25 02:40:20,44.3583,77.9753,52.16,14,0,2.33
520,Goure,NE,2021-09-25 02:40:21,13.9835,10.2704,82.02,23,52,5.03
521,Paramonga,PE,2021-09-25 02:40:21,-10.6667,-77.8333,62.28,86,76,7.96
522,Los Algarrobos,PA,2021-09-25 02:40:21,8.5,-82.4333,78.46,90,94,1.99
523,Andenes,NO,2021-09-25 02:40:21,69.3143,16.1194,44.58,87,100,5.75
524,Kidal,ML,2021-09-25 02:36:40,18.4411,1.4078,89.83,10,74,10.6
525,Kamloops,CA,2021-09-25 02:40:17,50.6665,-120.3192,63.75,69,75,1.01
526,Gwadar,PK,2021-09-25 02:40:22,25.1216,62.3254,80.78,80,98,5.19
527,Karoi,ZW,2021-09-25 02:40:22,-16.8099,29.6925,59.32,62,0,5.37
528,Mongoumba,CF,2021-09-25 02:40:22,3.6415,18.5936,68.04,99,94,2.15
529,Hamilton,US,2021-09-25 02:35:30,39.1834,-84.5333,61.99,79,1,0.0
530,Cap-Aux-Meules,CA,2021-09-25 02:40:23,47.3821,-61.8597,62.65,100,40,10.36
531,Paraiso,CR,2021-09-25 02:40:23,9.8383,-83.8656,65.41,97,100,2.33
532,Thurso,GB,2021-09-25 02:40:23,58.5927,-3.5259,53.85,85,97,7.92
533,Amapa,BR,2021-09-25 02:40:24,1.0,-52.0,71.83,88,100,2.51
534,Cortez,US,2021-09-25 02:40:24,37.3489,-108.5859,70.52,40,1,5.75
535,Marsabit,KE,2021-09-25 02:40:24,2.3284,37.9899,60.53,71,92,20.13
536,Hirado,JP,2021-09-25 02:40:24,33.3597,129.5531,80.38,71,100,6.71
537,Gillette,US,2021-09-25 02:36:02,44.2911,-105.5022,59.95,39,1,3.44
538,Ust-Ilimsk,RU,2021-09-25 02:40:25,58.0006,102.6619,42.75,57,23,3.6
539,Lauro Muller,BR,2021-09-25 02:40:25,-28.3928,-49.3967,63.79,73,92,0.72
540,Pacific Grove,US,2021-09-25 02:39:30,36.6177,-121.9166,70.81,91,75,3.0
541,Nioro,GM,2021-09-25 02:40:25,13.35,-15.75,75.43,91,42,2.13
542,Kaman,IN,2021-09-25 02:40:26,27.65,77.2667,82.13,74,1,7.52
543,Yambio,SS,2021-09-25 02:40:26,4.5721,28.3955,66.97,95,98,3.69
544,Lazaro Cardenas,MX,2021-09-25 02:40:26,17.9583,-102.2,80.51,84,56,2.98
545,Dolores,AR,2021-09-25 02:40:27,-36.3132,-57.6792,48.9,94,0,6.4
546,Palmer,US,2021-09-25 02:40:27,42.1584,-72.3287,65.21,84,20,0.0
547,La Palma,US,2021-09-25 02:39:28,33.8464,-118.0467,82.76,73,75,4.0
548,Glace Bay,CA,2021-09-25 02:40:27,46.1969,-59.957,61.9,97,90,5.01
549,Biak,ID,2021-09-25 02:40:28,-0.9131,122.8766,81.63,70,41,7.67
550,Turayf,SA,2021-09-25 02:40:28,31.6725,38.6637,59.25,82,0,4.61
551,Svobodnyy,RU,2021-09-25 02:40:28,51.4,128.1333,59.18,65,100,6.13
552,Hashtrud,IR,2021-09-25 02:40:28,37.4779,47.0508,56.14,63,0,7.31
553,Bugiri,UG,2021-09-25 02:40:29,0.5714,33.7417,63.59,88,87,3.58
554,Batemans Bay,AU,2021-09-25 02:40:08,-35.7167,150.1833,66.2,52,100,7.29
555,Arcata,US,2021-09-25 02:39:13,40.8665,-124.0828,60.37,78,1,4.61
556,Havoysund,NO,2021-09-25 02:40:29,70.9963,24.6622,47.28,78,91,15.12
557,Palauig,PH,2021-09-25 02:40:29,15.435,119.9045,86.05,66,11,5.97
558,Maceio,BR,2021-09-25 02:40:30,-9.6658,-35.7353,80.04,83,75,9.22
559,Constantine,DZ,2021-09-25 02:40:30,36.365,6.6147,77.72,30,78,5.39
560,Saint-Pierre,RE,2021-09-25 02:36:57,-21.3393,55.4781,69.44,74,0,6.91
561,Poso,ID,2021-09-25 02:40:30,-1.3959,120.7524,85.78,62,70,2.66
562,Pointe Michel,DM,2021-09-25 02:40:30,15.25,-61.3833,82.24,78,2,9.4
563,Okato,NZ,2021-09-25 02:40:31,-39.2,173.8833,59.41,77,100,11.07
564,Mehamn,NO,2021-09-25 02:40:31,71.0357,27.8492,44.87,91,100,10.49
565,Shelburne,CA,2021-09-25 02:40:31,44.0787,-80.2041,51.6,80,25,8.34
566,Tjaereborg,DK,2021-09-25 02:40:32,55.4646,8.5797,60.75,93,40,6.91
567,Pontianak,ID,2021-09-25 02:40:32,-0.0333,109.3333,84.18,74,20,5.75
568,Ust-Barguzin,RU,2021-09-25 02:40:32,53.45,108.9833,47.52,85,100,9.08
569,Sistranda,NO,2021-09-25 02:40:32,63.7256,8.834,51.91,82,99,29.46
570,Martapura,ID,2021-09-25 02:40:33,-3.4167,114.85,84.29,74,20,2.3
571,Meulaboh,ID,2021-09-25 02:40:33,4.1363,96.1285,83.79,69,49,4.52
572,Tortoli,IT,2021-09-25 02:40:33,39.9256,9.6572,76.98,78,0,8.05
573,Marawi,PH,2021-09-25 02:40:33,7.9986,124.2928,76.64,80,100,3.62
574,Mantenopolis,BR,2021-09-25 02:40:34,-18.8625,-41.1228,60.26,88,5,5.26
575,Shebalino,RU,2021-09-25 02:40:34,51.2917,85.6772,34.86,78,100,1.43
576,Guaratinga,BR,2021-09-25 02:40:34,-16.5667,-39.5667,68.67,89,84,3.02
577,Rosarito,MX,2021-09-25 02:40:34,32.3333,-117.0333,68.94,75,79,5.7
578,Saint-Michel-Des-Saints,CA,2021-09-25 02:40:35,46.6834,-73.9159,54.93,85,77,7.47
579,Sztum,PL,2021-09-25 02:40:35,53.9208,19.0307,60.33,82,100,16.13
580,Barranco,PA,2021-09-25 02:40:35,9.5167,-82.7,77.22,86,99,2.98
581,Najran,SA,2021-09-25 02:40:35,17.4924,44.1277,68.65,24,20,0.6
582,Severomuysk,RU,2021-09-25 02:40:36,56.1481,113.4267,35.71,78,100,4.07
583,Dublin,US,2021-09-25 02:40:36,37.7021,-121.9358,75.85,61,1,6.91
584,Varzea Da Palma,BR,2021-09-25 02:40:36,-17.5981,-44.7308,76.68,44,38,9.86
585,Kommunar,RU,2021-09-25 02:40:37,59.6206,30.39,46.51,94,100,8.43
586,Takoradi,GH,2021-09-25 02:40:37,4.8845,-1.7554,76.17,92,100,8.79
587,Bentiu,SS,2021-09-25 02:37:40,9.2333,29.8333,70.03,95,100,4.36
588,Jasper,US,2021-09-25 02:37:11,37.2001,-94.3502,68.05,61,1,1.01
589,Chongqing,CN,2021-09-25 02:40:37,29.5628,106.5528,92.23,47,0,5.99
590,Mananara,MG,2021-09-25 02:40:38,-16.1667,49.7667,69.49,93,64,6.78
591,Buchanan,LR,2021-09-25 02:40:38,5.8808,-10.0467,75.16,86,66,5.88
592,Ampanihy,MG,2021-09-25 02:40:38,-24.7,44.75,69.17,62,0,6.6
593,New Philadelphia,US,2021-09-25 02:39:51,40.4898,-81.4457,58.33,84,1,0.0
594,Kirakira,SB,2021-09-25 02:40:39,-10.4544,161.9205,84.22,73,59,10.18
595,La Palma Del Condado,ES,2021-09-25 02:40:39,37.3861,-6.5523,65.23,86,24,2.3
596,Manokwari,ID,2021-09-25 02:40:39,-0.8667,134.0833,82.92,73,80,6.55
597,Rach Gia,VN,2021-09-25 02:38:12,10.0167,105.0833,82.35,77,100,10.63
598,Namibe,AO,2021-09-25 02:40:39,-15.1961,12.1522,64.76,92,53,5.55
599,Takestan,IR,2021-09-25 02:40:40,36.0696,49.6959,60.93,40,0,2.84
600,Brae,GB,2021-09-25 02:37:16,60.3964,-1.353,51.71,77,88,7.47
601,College,US,2021-09-25 02:40:40,64.8569,-147.8028,34.29,90,90,3.44
602,Lac Du Bonnet,CA,2021-09-25 02:40:40,50.2536,-96.0612,54.59,77,96,6.42
603,Kihei,US,2021-09-25 02:40:41,20.785,-156.4656,84.22,70,40,20.71
604,Majene,ID,2021-09-25 02:40:41,-3.5403,118.9707,77.0,88,100,7.23
605,Kem,RU,2021-09-25 02:39:04,64.9555,34.5793,45.0,95,100,10.85
606,San Juan,AR,2021-09-25 02:40:05,-31.5375,-68.5364,75.72,26,0,12.8
607,Yenagoa,NG,2021-09-25 02:40:41,4.9247,6.2642,73.94,94,79,2.51
608,Mount Isa,AU,2021-09-25 02:40:41,-20.7333,139.5,89.37,12,69,8.05
609,Srednekolymsk,RU,2021-09-25 02:40:42,67.45,153.6833,42.57,58,100,11.95
610,Xambioa,BR,2021-09-25 02:40:42,-6.4111,-48.5364,80.8,56,26,3.42
611,Pascagoula,US,2021-09-25 02:40:42,30.3658,-88.5561,66.24,91,1,0.0
612,Umm Lajj,SA,2021-09-25 02:37:25,25.0213,37.2685,81.1,64,11,12.68
613,Raymond,US,2021-09-25 02:40:43,43.9015,-70.4703,68.18,90,100,3.42
614,The Valley,AI,2021-09-25 02:40:43,18.217,-63.0578,82.81,76,23,8.97
615,Chulman,RU,2021-09-25 02:40:43,56.8479,124.9104,46.51,75,100,0.56
616,Kharp,RU,2021-09-25 02:40:43,66.8014,65.8081,34.38,84,29,1.9
617,Marovoay,MG,2021-09-25 02:40:44,-16.1,46.6333,68.14,66,0,6.11
618,Alice Springs,AU,2021-09-25 02:36:54,-23.7,133.8833,83.75,9,76,13.8
619,Veseloyarsk,RU,2021-09-25 02:40:44,51.2836,81.1056,41.45,49,21,7.56
620,Iwanai,JP,2021-09-25 02:40:44,42.9744,140.5089,67.39,47,3,4.18
621,Tall Kayf,TR,2021-09-25 02:40:45,37.0833,41.0667,68.34,49,0,5.55
622,Zaysan,KZ,2021-09-25 02:40:45,47.4667,84.8667,41.7,38,22,5.01
623,Filingue,NE,2021-09-25 02:40:45,14.3521,3.3168,84.16,58,85,10.94
624,Shu,KZ,2021-09-25 02:40:45,43.5983,73.7614,52.23,23,0,3.53
625,Viedma,AR,2021-09-25 02:40:46,-40.8135,-62.9967,62.1,58,0,18.77
626,Luau,AO,2021-09-25 02:40:46,-10.7073,22.2247,66.31,37,40,1.48
627,Sisophon,KH,2021-09-25 02:40:46,13.5859,102.9737,76.23,93,100,3.29
628,Zabol,AF,2021-09-25 02:40:46,32.25,67.25,69.06,14,0,0.78
629,Jiexiu,CN,2021-09-25 02:40:47,37.0244,111.9125,67.3,81,88,12.82
630,Santarem,BR,2021-09-25 02:40:47,-2.4431,-54.7083,77.13,94,0,4.61
631,Atar,MR,2021-09-25 02:40:34,20.5169,-13.0499,88.41,21,15,6.62
632,Corumba,BR,2021-09-25 02:37:12,-19.0092,-57.6533,81.34,38,6,6.08
633,Marang,MY,2021-09-25 02:40:47,5.2056,103.2059,85.93,68,91,1.61
634,Salym,RU,2021-09-25 02:40:48,60.0625,71.4789,37.13,84,83,5.84
635,Mezen,RU,2021-09-25 02:40:48,65.8522,44.24,46.29,94,100,9.28
636,Tsumeb,NA,2021-09-25 02:40:48,-19.2333,17.7167,69.35,21,0,8.63
637,Thanh Hoa,VN,2021-09-25 02:38:56,19.8,105.7667,78.48,92,99,9.37
638,Nikolayevka,RU,2021-09-25 02:40:49,53.1257,47.2041,47.17,96,100,2.53
639,Nizhniy Odes,RU,2021-09-25 02:40:49,63.6445,54.856,40.1,87,64,9.44
640,Dhidhdhoo,MV,2021-09-25 02:40:49,6.8833,73.1,81.37,77,100,16.17
641,La Peca,PE,2021-09-25 02:40:49,-5.6111,-78.435,68.0,84,69,2.75
642,French Harbor,HN,2021-09-25 02:40:50,16.35,-86.4333,80.01,90,40,1.01
643,Itoman,JP,2021-09-25 02:40:50,26.1247,127.6694,89.62,68,40,10.36
644,Kushiro,JP,2021-09-25 02:40:50,42.975,144.3747,63.55,51,40,13.8
645,Jalor,IN,2021-09-25 02:40:50,25.35,72.6167,83.98,71,60,6.49
646,Chumikan,RU,2021-09-25 02:40:51,54.7183,135.315,62.69,54,48,17.58
647,Karratha,AU,2021-09-25 02:40:51,-20.7377,116.8463,84.56,20,2,11.83
648,Khandyga,RU,2021-09-25 02:40:51,62.6667,135.6,43.68,80,100,5.53
649,Piacabucu,BR,2021-09-25 02:40:51,-10.4056,-36.4344,74.89,84,100,9.98
650,At-Bashi,KG,2021-09-25 02:40:52,41.1702,75.8106,56.1,18,0,0.94
651,Eston,CA,2021-09-25 02:40:52,51.1501,-108.7514,57.92,35,73,9.48
652,Eureka,US,2021-09-25 02:40:52,40.8021,-124.1637,59.36,78,53,4.61
653,Synya,RU,2021-09-25 02:40:53,65.3718,58.0387,35.74,63,13,3.74
654,Nusaybin,TR,2021-09-25 02:40:53,37.0778,41.2178,68.54,49,0,5.03
655,Port Hardy,CA,2021-09-25 02:40:53,50.6996,-127.4199,57.38,77,90,4.61
656,Tiruchchendur,IN,2021-09-25 02:40:53,8.4833,78.1167,84.49,67,100,9.35
657,Waterloo,CA,2021-09-25 02:40:04,43.4668,-80.5164,55.47,93,1,3.44
658,Bairiki,KI,2021-09-25 02:40:54,1.3292,172.9752,87.8,66,20,10.36
659,Teya,RU,2021-09-25 02:40:54,60.3778,92.6267,37.72,78,100,6.93
660,Azangaro,PE,2021-09-25 02:40:54,-14.9167,-70.2167,49.1,56,98,1.5
661,Quesnel,CA,2021-09-25 02:35:58,52.9999,-122.5029,55.9,88,1,3.44
662,Tiassale,CI,2021-09-25 02:40:55,5.8983,-4.8283,72.9,99,99,2.64
663,Araouane,ML,2021-09-25 02:40:55,18.9048,-3.5265,91.8,28,73,7.92
664,Taoudenni,ML,2021-09-25 02:40:55,22.6783,-3.9836,93.43,12,16,7.94
665,Hot Springs,US,2021-09-25 02:40:55,34.5037,-93.0552,67.5,71,1,0.0
666,Manjacaze,MZ,2021-09-25 02:40:56,-24.7117,33.8828,58.14,88,0,3.49
667,Robertsport,LR,2021-09-25 02:40:56,6.7533,-11.3686,78.03,86,100,8.68
668,Barra Patuca,HN,2021-09-25 02:37:31,15.8,-84.2833,80.29,74,56,5.44
669,Banes,CU,2021-09-25 02:40:56,20.9625,-75.7186,79.41,84,79,7.23
670,Khonsa,IN,2021-09-25 02:40:57,27.0167,95.5667,80.74,60,63,1.99
671,Tuy Hoa,VN,2021-09-25 02:40:57,13.0833,109.3,80.15,84,100,3.85
672,Heyang,CN,2021-09-25 02:40:57,26.1011,107.473,77.13,72,100,8.55
673,Isangel,VU,2021-09-25 02:40:57,-19.55,169.2667,75.31,73,90,0.0
674,Pangnirtung,CA,2021-09-25 02:40:58,66.1451,-65.7125,32.61,52,39,3.74
675,Naze,JP,2021-09-25 02:40:58,28.3667,129.4833,85.12,79,27,13.85
676,Andros Town,BS,2021-09-25 02:40:58,24.7,-77.7667,78.76,67,100,4.09
677,Metro,ID,2021-09-25 02:40:59,-5.1131,105.3067,86.14,62,55,7.76
678,Kochi,IN,2021-09-25 02:40:59,9.9399,76.2602,76.98,83,99,5.12
679,Renfrew,GB,2021-09-25 02:40:59,55.872,-4.3925,60.15,92,90,9.22
680,Bamako,ML,2021-09-25 02:40:59,12.65,-8.0,77.41,88,20,3.44
681,Pereslavl-Zalesskiy,RU,2021-09-25 02:41:00,56.7393,38.8563,40.71,95,51,6.64
682,Muli,MV,2021-09-25 02:41:00,2.9167,73.5667,83.08,68,100,18.92
683,Lorengau,PG,2021-09-25 02:41:00,-2.0226,147.2712,85.33,67,92,10.98
684,Vicuna,CL,2021-09-25 02:41:00,-30.0319,-70.7081,47.93,55,0,1.66
685,Elizabeth City,US,2021-09-25 02:41:01,36.2946,-76.2511,70.99,84,90,8.05
686,Gashua,NG,2021-09-25 02:41:01,12.871,11.0482,80.4,55,98,6.64
687,Innisfail,AU,2021-09-25 02:41:01,-17.5333,146.0333,76.19,67,96,8.95
688,Te Anau,NZ,2021-09-25 02:41:02,-45.4167,167.7167,43.07,88,100,10.18
689,Kapit,MY,2021-09-25 02:41:02,2.0167,112.9333,90.05,55,43,1.63
